{
   "plus_code" : {
      "compound_code" : "QXX8+3WC İzmit/Kocaeli, Turkey",
      "global_code" : "8GGFQXX8+3WC"
   },
   "results" : [
      {
         "address_components" : [
            {
               "long_name" : "QXX8+3W",
               "short_name" : "QXX8+3W",
               "types" : [ "plus_code" ]
            },
            {
               "long_name" : "İzmit",
               "short_name" : "İzmit",
               "types" : [ "administrative_area_level_2", "political" ]
            },
            {
               "long_name" : "Kocaeli",
               "short_name" : "Kocaeli",
               "types" : [ "administrative_area_level_1", "political" ]
            },
            {
               "long_name" : "Turkey",
               "short_name" : "TR",
               "types" : [ "country", "political" ]
            }
         ],
         "formatted_address" : "QXX8+3W İzmit/Kocaeli, Turkey",
         "geometry" : {
            "bounds" : {
               "northeast" : {
                  "lat" : 40.79775,
                  "lng" : 29.967375
               },
               "southwest" : {
                  "lat" : 40.797625,
                  "lng" : 29.96725
               }
            },
            "location" : {
               "lat" : 40.79769719999999,
               "lng" : 29.96726989999999
            },
            "location_type" : "GEOMETRIC_CENTER",
            "viewport" : {
               "northeast" : {
                  "lat" : 40.7990364802915,
                  "lng" : 29.9686614802915
               },
               "southwest" : {
                  "lat" : 40.7963385197085,
                  "lng" : 29.9659635197085
               }
            }
         },
         "place_id" : "GhIJLQ4d8RpmREARuecKAJ_3PUA",
         "plus_code" : {
            "compound_code" : "QXX8+3W İzmit/Kocaeli, Turkey",
            "global_code" : "8GGFQXX8+3W"
         },
         "types" : [ "plus_code" ]
      },
      {
         "address_components" : [
            {
               "long_name" : "Bucak Sokak",
               "short_name" : "Bucak Sk.",
               "types" : [ "route" ]
            },
            {
               "long_name" : "Gündoğdu",
               "short_name" : "Gündoğdu",
               "types" : [ "administrative_area_level_4", "political" ]
            },
            {
               "long_name" : "İzmit",
               "short_name" : "İzmit",
               "types" : [ "administrative_area_level_2", "political" ]
            },
            {
               "long_name" : "Kocaeli",
               "short_name" : "Kocaeli",
               "types" : [ "administrative_area_level_1", "political" ]
            },
            {
               "long_name" : "Turkey",
               "short_name" : "TR",
               "types" : [ "country", "political" ]
            },
            {
               "long_name" : "41060",
               "short_name" : "41060",
               "types" : [ "postal_code" ]
            }
         ],
         "formatted_address" : "Gündoğdu, Bucak Sk., 41060 İzmit/Kocaeli, Turkey",
         "geometry" : {
            "bounds" : {
               "northeast" : {
                  "lat" : 40.7982492,
                  "lng" : 29.9676462
               },
               "southwest" : {
                  "lat" : 40.797326,
                  "lng" : 29.9665108
               }
            },
            "location" : {
               "lat" : 40.7977716,
               "lng" : 29.9671009
            },
            "location_type" : "GEOMETRIC_CENTER",
            "viewport" : {
               "northeast" : {
                  "lat" : 40.7991365802915,
                  "lng" : 29.9684274802915
               },
               "southwest" : {
                  "lat" : 40.7964386197085,
                  "lng" : 29.9657295197085
               }
            }
         },
         "place_id" : "ChIJTXbrwC5OyxQRlMvlGPy4n9I",
         "types" : [ "route" ]
      },
      {
         "address_components" : [
            {
               "long_name" : "No:40",
               "short_name" : "No:40",
               "types" : [ "street_number" ]
            },
            {
               "long_name" : "Karakuzu Sokak",
               "short_name" : "Karakuzu Sk",
               "types" : [ "route" ]
            },
            {
               "long_name" : "Tepeköy",
               "short_name" : "Tepeköy",
               "types" : [ "administrative_area_level_4", "political" ]
            },
            {
               "long_name" : "İzmit",
               "short_name" : "İzmit",
               "types" : [ "administrative_area_level_2", "political" ]
            },
            {
               "long_name" : "Kocaeli",
               "short_name" : "Kocaeli",
               "types" : [ "administrative_area_level_1", "political" ]
            },
            {
               "long_name" : "Turkey",
               "short_name" : "TR",
               "types" : [ "country", "political" ]
            },
            {
               "long_name" : "41060",
               "short_name" : "41060",
               "types" : [ "postal_code" ]
            }
         ],
         "formatted_address" : "Tepeköy, Karakuzu Sk No:40, 41060 İzmit/Kocaeli, Turkey",
         "geometry" : {
            "location" : {
               "lat" : 40.798585,
               "lng" : 29.9692661
            },
            "location_type" : "ROOFTOP",
            "viewport" : {
               "northeast" : {
                  "lat" : 40.7999339802915,
                  "lng" : 29.9706150802915
               },
               "southwest" : {
                  "lat" : 40.7972360197085,
                  "lng" : 29.9679171197085
               }
            }
         },
         "place_id" : "ChIJ7QCm0ZtPyxQRDvhjWMf4S4U",
         "plus_code" : {
            "compound_code" : "QXX9+CP İzmit/Kocaeli, Turkey",
            "global_code" : "8GGFQXX9+CP"
         },
         "types" : [ "street_address" ]
      },
      {
         "address_components" : [
            {
               "long_name" : "41060",
               "short_name" : "41060",
               "types" : [ "postal_code" ]
            },
            {
               "long_name" : "Gündoğdu",
               "short_name" : "Gündoğdu",
               "types" : [ "administrative_area_level_4", "political" ]
            },
            {
               "long_name" : "İzmit",
               "short_name" : "İzmit",
               "types" : [ "administrative_area_level_2", "political" ]
            },
            {
               "long_name" : "Kocaeli",
               "short_name" : "Kocaeli",
               "types" : [ "administrative_area_level_1", "political" ]
            },
            {
               "long_name" : "Turkey",
               "short_name" : "TR",
               "types" : [ "country", "political" ]
            }
         ],
         "formatted_address" : "Gündoğdu, 41060 İzmit/Kocaeli, Turkey",
         "geometry" : {
            "bounds" : {
               "northeast" : {
                  "lat" : 40.801882,
                  "lng" : 29.970332
               },
               "southwest" : {
                  "lat" : 40.785794,
                  "lng" : 29.951179
               }
            },
            "location" : {
               "lat" : 40.793316,
               "lng" : 29.9581538
            },
            "location_type" : "APPROXIMATE",
            "viewport" : {
               "northeast" : {
                  "lat" : 40.801882,
                  "lng" : 29.970332
               },
               "southwest" : {
                  "lat" : 40.785794,
                  "lng" : 29.951179
               }
            }
         },
         "place_id" : "ChIJLfRtyzJOyxQR_tBVCADzXHs",
         "types" : [ "postal_code" ]
      },
      {
         "address_components" : [
            {
               "long_name" : "Gündoğdu",
               "short_name" : "Gündoğdu",
               "types" : [ "administrative_area_level_4", "political" ]
            },
            {
               "long_name" : "İzmit",
               "short_name" : "İzmit",
               "types" : [ "administrative_area_level_2", "political" ]
            },
            {
               "long_name" : "Kocaeli",
               "short_name" : "Kocaeli",
               "types" : [ "administrative_area_level_1", "political" ]
            },
            {
               "long_name" : "Turkey",
               "short_name" : "TR",
               "types" : [ "country", "political" ]
            }
         ],
         "formatted_address" : "Gündoğdu, İzmit/Kocaeli, Turkey",
         "geometry" : {
            "bounds" : {
               "northeast" : {
                  "lat" : 40.801882,
                  "lng" : 29.970332
               },
               "southwest" : {
                  "lat" : 40.785794,
                  "lng" : 29.951179
               }
            },
            "location" : {
               "lat" : 40.793316,
               "lng" : 29.9581538
            },
            "location_type" : "APPROXIMATE",
            "viewport" : {
               "northeast" : {
                  "lat" : 40.801882,
                  "lng" : 29.970332
               },
               "southwest" : {
                  "lat" : 40.785794,
                  "lng" : 29.951179
               }
            }
         },
         "place_id" : "ChIJa6xLzTJOyxQRUJUDpIM6QIk",
         "types" : [ "administrative_area_level_4", "political" ]
      },
      {
         "address_components" : [
            {
               "long_name" : "İzmit",
               "short_name" : "İzmit",
               "types" : [ "administrative_area_level_2", "political" ]
            },
            {
               "long_name" : "Kocaeli",
               "short_name" : "Kocaeli",
               "types" : [ "administrative_area_level_1", "political" ]
            },
            {
               "long_name" : "Turkey",
               "short_name" : "TR",
               "types" : [ "country", "political" ]
            }
         ],
         "formatted_address" : "İzmit/Kocaeli, Turkey",
         "geometry" : {
            "bounds" : {
               "northeast" : {
                  "lat" : 40.971557,
                  "lng" : 30.2639339
               },
               "southwest" : {
                  "lat" : 40.720553,
                  "lng" : 29.8541681
               }
            },
            "location" : {
               "lat" : 40.8506635,
               "lng" : 30.0202964
            },
            "location_type" : "APPROXIMATE",
            "viewport" : {
               "northeast" : {
                  "lat" : 40.971557,
                  "lng" : 30.2639339
               },
               "southwest" : {
                  "lat" : 40.720553,
                  "lng" : 29.8541681
               }
            }
         },
         "place_id" : "ChIJL2DfPLZQyxQRitx6sY9PIGU",
         "types" : [ "administrative_area_level_2", "political" ]
      },
      {
         "address_components" : [
            {
               "long_name" : "Kocaeli",
               "short_name" : "Kocaeli",
               "types" : [ "administrative_area_level_1", "political" ]
            },
            {
               "long_name" : "Turkey",
               "short_name" : "TR",
               "types" : [ "country", "political" ]
            }
         ],
         "formatted_address" : "Kocaeli, Turkey",
         "geometry" : {
            "bounds" : {
               "northeast" : {
                  "lat" : 41.20976,
                  "lng" : 30.367743
               },
               "southwest" : {
                  "lat" : 40.524151,
                  "lng" : 29.3331261
               }
            },
            "location" : {
               "lat" : 40.8532704,
               "lng" : 29.8815203
            },
            "location_type" : "APPROXIMATE",
            "viewport" : {
               "northeast" : {
                  "lat" : 41.20976,
                  "lng" : 30.367743
               },
               "southwest" : {
                  "lat" : 40.524151,
                  "lng" : 29.3331261
               }
            }
         },
         "place_id" : "ChIJQ8zKb5QgyxQRWdhW642zLKg",
         "types" : [ "administrative_area_level_1", "political" ]
      },
      {
         "address_components" : [
            {
               "long_name" : "Turkey",
               "short_name" : "TR",
               "types" : [ "country", "political" ]
            }
         ],
         "formatted_address" : "Turkey",
         "geometry" : {
            "bounds" : {
               "northeast" : {
                  "lat" : 42.3666999,
                  "lng" : 44.8178449
               },
               "southwest" : {
                  "lat" : 35.808592,
                  "lng" : 25.5377
               }
            },
            "location" : {
               "lat" : 38.963745,
               "lng" : 35.243322
            },
            "location_type" : "APPROXIMATE",
            "viewport" : {
               "northeast" : {
                  "lat" : 42.3666999,
                  "lng" : 44.8178449
               },
               "southwest" : {
                  "lat" : 35.808592,
                  "lng" : 25.5377
               }
            }
         },
         "place_id" : "ChIJcSZPllwVsBQRKl9iKtTb2UA",
         "types" : [ "country", "political" ]
      }
   ],
   "status" : "OK"
}
