{
   "plus_code" : {
      "compound_code" : "QWM3+FW7 İzmit/Kocaeli, Turkey",
      "global_code" : "8GGFQWM3+FW7"
   },
   "results" : [
      {
         "address_components" : [
            {
               "long_name" : "QWM3+FW",
               "short_name" : "QWM3+FW",
               "types" : [ "plus_code" ]
            },
            {
               "long_name" : "İzmit",
               "short_name" : "İzmit",
               "types" : [ "administrative_area_level_2", "political" ]
            },
            {
               "long_name" : "Kocaeli",
               "short_name" : "Kocaeli",
               "types" : [ "administrative_area_level_1", "political" ]
            },
            {
               "long_name" : "Turkey",
               "short_name" : "TR",
               "types" : [ "country", "political" ]
            }
         ],
         "formatted_address" : "QWM3+FW İzmit/Kocaeli, Turkey",
         "geometry" : {
            "bounds" : {
               "northeast" : {
                  "lat" : 40.78375,
                  "lng" : 29.904875
               },
               "southwest" : {
                  "lat" : 40.783625,
                  "lng" : 29.90475
               }
            },
            "location" : {
               "lat" : 40.783661,
               "lng" : 29.9047852
            },
            "location_type" : "GEOMETRIC_CENTER",
            "viewport" : {
               "northeast" : {
                  "lat" : 40.7850364802915,
                  "lng" : 29.9061614802915
               },
               "southwest" : {
                  "lat" : 40.7823385197085,
                  "lng" : 29.9034635197085
               }
            }
         },
         "place_id" : "GhIJSBPvAE9kREARo-e7AKDnPUA",
         "plus_code" : {
            "compound_code" : "QWM3+FW İzmit/Kocaeli, Turkey",
            "global_code" : "8GGFQWM3+FW"
         },
         "types" : [ "plus_code" ]
      },
      {
         "address_components" : [
            {
               "long_name" : "Değirmendere Sokak",
               "short_name" : "Değirmendere Sk.",
               "types" : [ "route" ]
            },
            {
               "long_name" : "Arızlı",
               "short_name" : "Arızlı",
               "types" : [ "administrative_area_level_4", "political" ]
            },
            {
               "long_name" : "İzmit",
               "short_name" : "İzmit",
               "types" : [ "administrative_area_level_2", "political" ]
            },
            {
               "long_name" : "Kocaeli",
               "short_name" : "Kocaeli",
               "types" : [ "administrative_area_level_1", "political" ]
            },
            {
               "long_name" : "Turkey",
               "short_name" : "TR",
               "types" : [ "country", "political" ]
            },
            {
               "long_name" : "41000",
               "short_name" : "41000",
               "types" : [ "postal_code" ]
            }
         ],
         "formatted_address" : "Arızlı, Değirmendere Sk., 41000 İzmit/Kocaeli, Turkey",
         "geometry" : {
            "bounds" : {
               "northeast" : {
                  "lat" : 40.7855364,
                  "lng" : 29.9060132
               },
               "southwest" : {
                  "lat" : 40.7823709,
                  "lng" : 29.9022314
               }
            },
            "location" : {
               "lat" : 40.7837993,
               "lng" : 29.904363
            },
            "location_type" : "GEOMETRIC_CENTER",
            "viewport" : {
               "northeast" : {
                  "lat" : 40.7855364,
                  "lng" : 29.9060132
               },
               "southwest" : {
                  "lat" : 40.7823709,
                  "lng" : 29.9022314
               }
            }
         },
         "place_id" : "ChIJs4HNvkJPyxQR7vPYllqW2e8",
         "types" : [ "route" ]
      },
      {
         "address_components" : [
            {
               "long_name" : "80",
               "short_name" : "80",
               "types" : [ "street_number" ]
            },
            {
               "long_name" : "Arızlı Köyü Yolu",
               "short_name" : "Arızlı Köyü Yolu",
               "types" : [ "route" ]
            },
            {
               "long_name" : "Arızlı Mh.",
               "short_name" : "Arızlı Mh.",
               "types" : [ "administrative_area_level_4", "political" ]
            },
            {
               "long_name" : "İzmit",
               "short_name" : "İzmit",
               "types" : [ "administrative_area_level_2", "political" ]
            },
            {
               "long_name" : "Kocaeli",
               "short_name" : "Kocaeli",
               "types" : [ "administrative_area_level_1", "political" ]
            },
            {
               "long_name" : "Turkey",
               "short_name" : "TR",
               "types" : [ "country", "political" ]
            },
            {
               "long_name" : "41001",
               "short_name" : "41001",
               "types" : [ "postal_code" ]
            }
         ],
         "formatted_address" : "Arızlı Mh., Arızlı Köyü Yolu No:80, 41001 İzmit/Kocaeli, Turkey",
         "geometry" : {
            "location" : {
               "lat" : 40.784496,
               "lng" : 29.901573
            },
            "location_type" : "ROOFTOP",
            "viewport" : {
               "northeast" : {
                  "lat" : 40.7858449802915,
                  "lng" : 29.9029219802915
               },
               "southwest" : {
                  "lat" : 40.7831470197085,
                  "lng" : 29.9002240197085
               }
            }
         },
         "place_id" : "ChIJ_SjeHENPyxQRuX2SlUIA8Vg",
         "plus_code" : {
            "compound_code" : "QWM2+QJ İzmit/Kocaeli, Turkey",
            "global_code" : "8GGFQWM2+QJ"
         },
         "types" : [ "street_address" ]
      },
      {
         "address_components" : [
            {
               "long_name" : "35",
               "short_name" : "35",
               "types" : [ "street_number" ]
            },
            {
               "long_name" : "Değirmendere Sokak",
               "short_name" : "Değirmendere Sk.",
               "types" : [ "route" ]
            },
            {
               "long_name" : "Arızlı",
               "short_name" : "Arızlı",
               "types" : [ "administrative_area_level_4", "political" ]
            },
            {
               "long_name" : "İzmit",
               "short_name" : "İzmit",
               "types" : [ "administrative_area_level_2", "political" ]
            },
            {
               "long_name" : "Kocaeli",
               "short_name" : "Kocaeli",
               "types" : [ "administrative_area_level_1", "political" ]
            },
            {
               "long_name" : "Turkey",
               "short_name" : "TR",
               "types" : [ "country", "political" ]
            },
            {
               "long_name" : "41000",
               "short_name" : "41000",
               "types" : [ "postal_code" ]
            }
         ],
         "formatted_address" : "Arızlı, Değirmendere Sk. No:35, 41000 İzmit/Kocaeli, Turkey",
         "geometry" : {
            "location" : {
               "lat" : 40.7822015,
               "lng" : 29.9020194
            },
            "location_type" : "RANGE_INTERPOLATED",
            "viewport" : {
               "northeast" : {
                  "lat" : 40.7835504802915,
                  "lng" : 29.9033683802915
               },
               "southwest" : {
                  "lat" : 40.7808525197085,
                  "lng" : 29.9006704197085
               }
            }
         },
         "place_id" : "Ej9BcsSxemzEsSwgRGXEn2lybWVuZGVyZSBTay4gTm86MzUsIDQxMDAwIMSwem1pdC9Lb2NhZWxpLCBUdXJrZXkiGhIYChQKEgnRzv3eXE_LFBFwNsHVwtixGxAj",
         "types" : [ "street_address" ]
      },
      {
         "address_components" : [
            {
               "long_name" : "41001",
               "short_name" : "41001",
               "types" : [ "postal_code" ]
            },
            {
               "long_name" : "Arızlı",
               "short_name" : "Arızlı",
               "types" : [ "administrative_area_level_4", "political" ]
            },
            {
               "long_name" : "İzmit",
               "short_name" : "İzmit",
               "types" : [ "administrative_area_level_2", "political" ]
            },
            {
               "long_name" : "Kocaeli",
               "short_name" : "Kocaeli",
               "types" : [ "administrative_area_level_1", "political" ]
            },
            {
               "long_name" : "Turkey",
               "short_name" : "TR",
               "types" : [ "country", "political" ]
            }
         ],
         "formatted_address" : "Arızlı, 41001 İzmit/Kocaeli, Turkey",
         "geometry" : {
            "bounds" : {
               "northeast" : {
                  "lat" : 40.8350929,
                  "lng" : 29.9189441
               },
               "southwest" : {
                  "lat" : 40.7763721,
                  "lng" : 29.881933
               }
            },
            "location" : {
               "lat" : 40.8019472,
               "lng" : 29.9075516
            },
            "location_type" : "APPROXIMATE",
            "viewport" : {
               "northeast" : {
                  "lat" : 40.8350929,
                  "lng" : 29.9189441
               },
               "southwest" : {
                  "lat" : 40.7763721,
                  "lng" : 29.881933
               }
            }
         },
         "place_id" : "ChIJMd8w3SNPyxQRpLHl9remPRE",
         "types" : [ "postal_code" ]
      },
      {
         "address_components" : [
            {
               "long_name" : "Arızlı",
               "short_name" : "Arızlı",
               "types" : [ "administrative_area_level_4", "political" ]
            },
            {
               "long_name" : "İzmit",
               "short_name" : "İzmit",
               "types" : [ "administrative_area_level_2", "political" ]
            },
            {
               "long_name" : "Kocaeli",
               "short_name" : "Kocaeli",
               "types" : [ "administrative_area_level_1", "political" ]
            },
            {
               "long_name" : "Turkey",
               "short_name" : "TR",
               "types" : [ "country", "political" ]
            }
         ],
         "formatted_address" : "Arızlı, İzmit/Kocaeli, Turkey",
         "geometry" : {
            "bounds" : {
               "northeast" : {
                  "lat" : 40.8350929,
                  "lng" : 29.9189441
               },
               "southwest" : {
                  "lat" : 40.7763721,
                  "lng" : 29.881933
               }
            },
            "location" : {
               "lat" : 40.8019472,
               "lng" : 29.9075516
            },
            "location_type" : "APPROXIMATE",
            "viewport" : {
               "northeast" : {
                  "lat" : 40.8350929,
                  "lng" : 29.9189441
               },
               "southwest" : {
                  "lat" : 40.7763721,
                  "lng" : 29.881933
               }
            }
         },
         "place_id" : "ChIJv2m_DBlPyxQRqNl24eCbKhc",
         "types" : [ "administrative_area_level_4", "political" ]
      },
      {
         "address_components" : [
            {
               "long_name" : "İzmit",
               "short_name" : "İzmit",
               "types" : [ "administrative_area_level_2", "political" ]
            },
            {
               "long_name" : "Kocaeli",
               "short_name" : "Kocaeli",
               "types" : [ "administrative_area_level_1", "political" ]
            },
            {
               "long_name" : "Turkey",
               "short_name" : "TR",
               "types" : [ "country", "political" ]
            }
         ],
         "formatted_address" : "İzmit/Kocaeli, Turkey",
         "geometry" : {
            "bounds" : {
               "northeast" : {
                  "lat" : 40.971557,
                  "lng" : 30.2639339
               },
               "southwest" : {
                  "lat" : 40.720553,
                  "lng" : 29.8541681
               }
            },
            "location" : {
               "lat" : 40.8506635,
               "lng" : 30.0202964
            },
            "location_type" : "APPROXIMATE",
            "viewport" : {
               "northeast" : {
                  "lat" : 40.971557,
                  "lng" : 30.2639339
               },
               "southwest" : {
                  "lat" : 40.720553,
                  "lng" : 29.8541681
               }
            }
         },
         "place_id" : "ChIJL2DfPLZQyxQRitx6sY9PIGU",
         "types" : [ "administrative_area_level_2", "political" ]
      },
      {
         "address_components" : [
            {
               "long_name" : "Kocaeli",
               "short_name" : "Kocaeli",
               "types" : [ "administrative_area_level_1", "political" ]
            },
            {
               "long_name" : "Turkey",
               "short_name" : "TR",
               "types" : [ "country", "political" ]
            }
         ],
         "formatted_address" : "Kocaeli, Turkey",
         "geometry" : {
            "bounds" : {
               "northeast" : {
                  "lat" : 41.20976,
                  "lng" : 30.367743
               },
               "southwest" : {
                  "lat" : 40.524151,
                  "lng" : 29.3331261
               }
            },
            "location" : {
               "lat" : 40.8532704,
               "lng" : 29.8815203
            },
            "location_type" : "APPROXIMATE",
            "viewport" : {
               "northeast" : {
                  "lat" : 41.20976,
                  "lng" : 30.367743
               },
               "southwest" : {
                  "lat" : 40.524151,
                  "lng" : 29.3331261
               }
            }
         },
         "place_id" : "ChIJQ8zKb5QgyxQRWdhW642zLKg",
         "types" : [ "administrative_area_level_1", "political" ]
      },
      {
         "address_components" : [
            {
               "long_name" : "Turkey",
               "short_name" : "TR",
               "types" : [ "country", "political" ]
            }
         ],
         "formatted_address" : "Turkey",
         "geometry" : {
            "bounds" : {
               "northeast" : {
                  "lat" : 42.3666999,
                  "lng" : 44.8178449
               },
               "southwest" : {
                  "lat" : 35.808592,
                  "lng" : 25.5377
               }
            },
            "location" : {
               "lat" : 38.963745,
               "lng" : 35.243322
            },
            "location_type" : "APPROXIMATE",
            "viewport" : {
               "northeast" : {
                  "lat" : 42.3666999,
                  "lng" : 44.8178449
               },
               "southwest" : {
                  "lat" : 35.808592,
                  "lng" : 25.5377
               }
            }
         },
         "place_id" : "ChIJcSZPllwVsBQRKl9iKtTb2UA",
         "types" : [ "country", "political" ]
      }
   ],
   "status" : "OK"
}
