{
   "results" : [
      {
         "address_components" : [
            {
               "long_name" : "60",
               "short_name" : "60",
               "types" : [ "street_number" ]
            },
            {
               "long_name" : "West Portal Avenue",
               "short_name" : "W Portal Ave",
               "types" : [ "route" ]
            },
            {
               "long_name" : "West of Twin Peaks",
               "short_name" : "West of Twin Peaks",
               "types" : [ "neighborhood", "political" ]
            },
            {
               "long_name" : "San Francisco",
               "short_name" : "SF",
               "types" : [ "locality", "political" ]
            },
            {
               "long_name" : "San Francisco County",
               "short_name" : "San Francisco County",
               "types" : [ "administrative_area_level_2", "political" ]
            },
            {
               "long_name" : "California",
               "short_name" : "CA",
               "types" : [ "administrative_area_level_1", "political" ]
            },
            {
               "long_name" : "United States",
               "short_name" : "US",
               "types" : [ "country", "political" ]
            },
            {
               "long_name" : "94127",
               "short_name" : "94127",
               "types" : [ "postal_code" ]
            },
            {
               "long_name" : "1304",
               "short_name" : "1304",
               "types" : [ "postal_code_suffix" ]
            }
         ],
         "formatted_address" : "60 W Portal Ave, San Francisco, CA 94127, USA",
         "geometry" : {
            "location" : {
               "lat" : 37.7402731,
               "lng" : -122.4667086
            },
            "location_type" : "ROOFTOP",
            "viewport" : {
               "northeast" : {
                  "lat" : 37.74162208029149,
                  "lng" : -122.4653596197085
               },
               "southwest" : {
                  "lat" : 37.7389241197085,
                  "lng" : -122.4680575802915
               }
            }
         },
         "place_id" : "ChIJ3d4n-Op9j4AR7r-nYVNINr0",
         "types" : [ "establishment", "food", "point_of_interest", "restaurant" ]
      },
      {
         "address_components" : [
            {
               "long_name" : "11",
               "short_name" : "11",
               "types" : [ "street_number" ]
            },
            {
               "long_name" : "Wall Street",
               "short_name" : "Wall St",
               "types" : [ "route" ]
            },
            {
               "long_name" : "Manhattan",
               "short_name" : "Manhattan",
               "types" : [ "political", "sublocality", "sublocality_level_1" ]
            },
            {
               "long_name" : "New York",
               "short_name" : "New York",
               "types" : [ "locality", "political" ]
            },
            {
               "long_name" : "New York County",
               "short_name" : "New York County",
               "types" : [ "administrative_area_level_2", "political" ]
            },
            {
               "long_name" : "New York",
               "short_name" : "NY",
               "types" : [ "administrative_area_level_1", "political" ]
            },
            {
               "long_name" : "United States",
               "short_name" : "US",
               "types" : [ "country", "political" ]
            },
            {
               "long_name" : "10005",
               "short_name" : "10005",
               "types" : [ "postal_code" ]
            }
         ],
         "formatted_address" : "11 Wall St, New York, NY 10005, USA",
         "geometry" : {
            "location" : {
               "lat" : 40.706877,
               "lng" : -74.0112654
            },
            "location_type" : "ROOFTOP",
            "viewport" : {
               "northeast" : {
                  "lat" : 40.70822598029149,
                  "lng" : -74.00991641970849
               },
               "southwest" : {
                  "lat" : 40.7055280197085,
                  "lng" : -74.0126143802915
               }
            }
         },
         "place_id" : "ChIJodiAGRZawokRHXCBqdWXV54",
         "types" : [ "establishment", "finance", "point_of_interest", "tourist_attraction" ]
      },
      {
         "address_components" : [
            {
               "long_name" : "11",
               "short_name" : "11",
               "types" : [ "street_number" ]
            },
            {
               "long_name" : "Kostiantynivska Street",
               "short_name" : "Kostiantynivska St",
               "types" : [ "route" ]
            },
            {
               "long_name" : "Podil's'kyi district",
               "short_name" : "Podil's'kyi district",
               "types" : [ "political", "sublocality", "sublocality_level_1" ]
            },
            {
               "long_name" : "Kyiv",
               "short_name" : "Kyiv",
               "types" : [ "locality", "political" ]
            },
            {
               "long_name" : "Kyiv City",
               "short_name" : "Kyiv City",
               "types" : [ "administrative_area_level_2", "political" ]
            },
            {
               "long_name" : "Ukraine",
               "short_name" : "UA",
               "types" : [ "country", "political" ]
            },
            {
               "long_name" : "04071",
               "short_name" : "04071",
               "types" : [ "postal_code" ]
            }
         ],
         "formatted_address" : "Kostiantynivska St, 11, Kyiv, Ukraine, 04071",
         "geometry" : {
            "location" : {
               "lat" : 50.465445,
               "lng" : 30.513914
            },
            "location_type" : "ROOFTOP",
            "viewport" : {
               "northeast" : {
                  "lat" : 50.46679398029149,
                  "lng" : 30.5152629802915
               },
               "southwest" : {
                  "lat" : 50.46409601970849,
                  "lng" : 30.5125650197085
               }
            }
         },
         "place_id" : "ChIJ1Xd-5WrO1EARQBhgEn4gW5U",
         "types" : [ "art_gallery", "establishment", "point_of_interest" ]
      },
      {
         "address_components" : [
            {
               "long_name" : "Bursa",
               "short_name" : "Bursa",
               "types" : [ "locality", "political" ]
            },
            {
               "long_name" : "Bursa",
               "short_name" : "Bursa",
               "types" : [ "administrative_area_level_1", "political" ]
            },
            {
               "long_name" : "Turkey",
               "short_name" : "TR",
               "types" : [ "country", "political" ]
            }
         ],
         "formatted_address" : "Bursa, Turkey",
         "geometry" : {
            "bounds" : {
               "northeast" : {
                  "lat" : 40.276336,
                  "lng" : 29.202363
               },
               "southwest" : {
                  "lat" : 40.16702,
                  "lng" : 28.862216
               }
            },
            "location" : {
               "lat" : 40.1885281,
               "lng" : 29.0609636
            },
            "location_type" : "APPROXIMATE",
            "viewport" : {
               "northeast" : {
                  "lat" : 40.276336,
                  "lng" : 29.202363
               },
               "southwest" : {
                  "lat" : 40.16702,
                  "lng" : 28.862216
               }
            }
         },
         "place_id" : "ChIJlVbU2IIVyhQRkjOX_FUFoGE",
         "types" : [ "locality", "political" ]
      },
      {
         "address_components" : [
            {
               "long_name" : "60",
               "short_name" : "60",
               "types" : [ "street_number" ]
            },
            {
               "long_name" : "Botaniczna",
               "short_name" : "Botaniczna",
               "types" : [ "route" ]
            },
            {
               "long_name" : "Zielona Góra",
               "short_name" : "Zielona Góra",
               "types" : [ "locality", "political" ]
            },
            {
               "long_name" : "Zielona Góra",
               "short_name" : "Zielona Góra",
               "types" : [ "administrative_area_level_2", "political" ]
            },
            {
               "long_name" : "Lubuskie",
               "short_name" : "Lubuskie",
               "types" : [ "administrative_area_level_1", "political" ]
            },
            {
               "long_name" : "Poland",
               "short_name" : "PL",
               "types" : [ "country", "political" ]
            },
            {
               "long_name" : "65-392",
               "short_name" : "65-392",
               "types" : [ "postal_code" ]
            }
         ],
         "formatted_address" : "Botaniczna 60, 65-392 Zielona Góra, Poland",
         "geometry" : {
            "location" : {
               "lat" : 51.918169,
               "lng" : 15.498917
            },
            "location_type" : "ROOFTOP",
            "viewport" : {
               "northeast" : {
                  "lat" : 51.9195179802915,
                  "lng" : 15.5002659802915
               },
               "southwest" : {
                  "lat" : 51.9168200197085,
                  "lng" : 15.4975680197085
               }
            }
         },
         "place_id" : "ChIJ0VnP_2sRBkcR9Qf0BpJzQHs",
         "types" : [ "establishment", "lodging", "point_of_interest" ]
      },
      {
         "address_components" : [
            {
               "long_name" : "Bursa",
               "short_name" : "Bursa",
               "types" : [ "administrative_area_level_1", "political" ]
            },
            {
               "long_name" : "Turkey",
               "short_name" : "TR",
               "types" : [ "country", "political" ]
            }
         ],
         "formatted_address" : "Bursa, Turkey",
         "geometry" : {
            "bounds" : {
               "northeast" : {
                  "lat" : 40.6212121,
                  "lng" : 29.9561661
               },
               "southwest" : {
                  "lat" : 39.5937439,
                  "lng" : 28.0876659
               }
            },
            "location" : {
               "lat" : 40.0655459,
               "lng" : 29.2320784
            },
            "location_type" : "APPROXIMATE",
            "viewport" : {
               "northeast" : {
                  "lat" : 40.6212121,
                  "lng" : 29.9561661
               },
               "southwest" : {
                  "lat" : 39.5937439,
                  "lng" : 28.0876659
               }
            }
         },
         "place_id" : "ChIJqSK43XuPtRQRzUZGtXCmLJI",
         "types" : [ "administrative_area_level_1", "political" ]
      },
      {
         "address_components" : [
            {
               "long_name" : "71",
               "short_name" : "71",
               "types" : [ "street_number" ]
            },
            {
               "long_name" : "Strada Popa Tatu",
               "short_name" : "Strada Popa Tatu",
               "types" : [ "route" ]
            },
            {
               "long_name" : "Sector 1",
               "short_name" : "Sector 1",
               "types" : [ "political", "sublocality", "sublocality_level_1" ]
            },
            {
               "long_name" : "București",
               "short_name" : "București",
               "types" : [ "locality", "political" ]
            },
            {
               "long_name" : "Municipiul București",
               "short_name" : "Municipiul București",
               "types" : [ "administrative_area_level_2", "political" ]
            },
            {
               "long_name" : "București",
               "short_name" : "București",
               "types" : [ "administrative_area_level_1", "political" ]
            },
            {
               "long_name" : "Romania",
               "short_name" : "RO",
               "types" : [ "country", "political" ]
            },
            {
               "long_name" : "010806",
               "short_name" : "010806",
               "types" : [ "postal_code" ]
            }
         ],
         "formatted_address" : "Strada Popa Tatu 71, București 010806, Romania",
         "geometry" : {
            "location" : {
               "lat" : 44.444196,
               "lng" : 26.0825355
            },
            "location_type" : "ROOFTOP",
            "viewport" : {
               "northeast" : {
                  "lat" : 44.44554498029149,
                  "lng" : 26.0838844802915
               },
               "southwest" : {
                  "lat" : 44.4428470197085,
                  "lng" : 26.0811865197085
               }
            }
         },
         "place_id" : "ChIJR_0HAeL-sUARMGH9ld8wDxo",
         "types" : [ "establishment", "point_of_interest" ]
      },
      {
         "address_components" : [
            {
               "long_name" : "No:2",
               "short_name" : "No:2",
               "types" : [ "street_number" ]
            },
            {
               "long_name" : "Ulucami Caddesi",
               "short_name" : "Ulucami Cd.",
               "types" : [ "route" ]
            },
            {
               "long_name" : "Nalbantoğlu",
               "short_name" : "Nalbantoğlu",
               "types" : [ "administrative_area_level_4", "political" ]
            },
            {
               "long_name" : "Osmangazi",
               "short_name" : "Osmangazi",
               "types" : [ "administrative_area_level_2", "political" ]
            },
            {
               "long_name" : "Bursa",
               "short_name" : "Bursa",
               "types" : [ "administrative_area_level_1", "political" ]
            },
            {
               "long_name" : "Turkey",
               "short_name" : "TR",
               "types" : [ "country", "political" ]
            },
            {
               "long_name" : "16010",
               "short_name" : "16010",
               "types" : [ "postal_code" ]
            }
         ],
         "formatted_address" : "Nalbantoğlu, Ulucami Cd. No:2, 16010 Osmangazi/Bursa, Turkey",
         "geometry" : {
            "location" : {
               "lat" : 40.1838478,
               "lng" : 29.0617098
            },
            "location_type" : "ROOFTOP",
            "viewport" : {
               "northeast" : {
                  "lat" : 40.1851967802915,
                  "lng" : 29.0630587802915
               },
               "southwest" : {
                  "lat" : 40.1824988197085,
                  "lng" : 29.0603608197085
               }
            }
         },
         "place_id" : "ChIJ3RmyGj84yhQR4x4TfWyU8SY",
         "types" : [
            "establishment",
            "mosque",
            "place_of_worship",
            "point_of_interest",
            "tourist_attraction"
         ]
      },
      {
         "address_components" : [
            {
               "long_name" : "Nilüfer",
               "short_name" : "Nilüfer",
               "types" : [ "administrative_area_level_2", "political" ]
            },
            {
               "long_name" : "Bursa",
               "short_name" : "Bursa",
               "types" : [ "administrative_area_level_1", "political" ]
            },
            {
               "long_name" : "Turkey",
               "short_name" : "TR",
               "types" : [ "country", "political" ]
            }
         ],
         "formatted_address" : "Nilüfer/Bursa, Turkey",
         "geometry" : {
            "bounds" : {
               "northeast" : {
                  "lat" : 40.2820339,
                  "lng" : 29.009516
               },
               "southwest" : {
                  "lat" : 40.06867099999999,
                  "lng" : 28.649385
               }
            },
            "location" : {
               "lat" : 40.1424874,
               "lng" : 28.8130546
            },
            "location_type" : "APPROXIMATE",
            "viewport" : {
               "northeast" : {
                  "lat" : 40.2820339,
                  "lng" : 29.009516
               },
               "southwest" : {
                  "lat" : 40.06867099999999,
                  "lng" : 28.649385
               }
            }
         },
         "place_id" : "ChIJRb4FDGIFyhQRlL9BKqgbHbQ",
         "types" : [ "administrative_area_level_2", "political" ]
      },
      {
         "address_components" : [
            {
               "long_name" : "Cumalıkızık",
               "short_name" : "Cumalıkızık",
               "types" : [ "administrative_area_level_4", "political" ]
            },
            {
               "long_name" : "Yıldırım",
               "short_name" : "Yıldırım",
               "types" : [ "administrative_area_level_2", "political" ]
            },
            {
               "long_name" : "Bursa",
               "short_name" : "Bursa",
               "types" : [ "administrative_area_level_1", "political" ]
            },
            {
               "long_name" : "Turkey",
               "short_name" : "TR",
               "types" : [ "country", "political" ]
            },
            {
               "long_name" : "16370",
               "short_name" : "16370",
               "types" : [ "postal_code" ]
            }
         ],
         "formatted_address" : "Cumalıkızık, 16370 Yıldırım/Bursa, Turkey",
         "geometry" : {
            "bounds" : {
               "northeast" : {
                  "lat" : 40.193924,
                  "lng" : 29.181013
               },
               "southwest" : {
                  "lat" : 40.167385,
                  "lng" : 29.1579809
               }
            },
            "location" : {
               "lat" : 40.1786592,
               "lng" : 29.1710443
            },
            "location_type" : "APPROXIMATE",
            "viewport" : {
               "northeast" : {
                  "lat" : 40.193924,
                  "lng" : 29.181013
               },
               "southwest" : {
                  "lat" : 40.167385,
                  "lng" : 29.1579809
               }
            }
         },
         "place_id" : "ChIJKWW46RM5yhQRZDAPFyiJzIc",
         "types" : [ "administrative_area_level_4", "political" ]
      }
   ],
   "status" : "OK"
}
