{
   "plus_code" : {
      "compound_code" : "QX85+J5F İzmit/Kocaeli, Turkey",
      "global_code" : "8GGFQX85+J5F"
   },
   "results" : [
      {
         "address_components" : [
            {
               "long_name" : "39",
               "short_name" : "39",
               "types" : [ "street_number" ]
            },
            {
               "long_name" : "Müjde Sokak",
               "short_name" : "Müjde Sk.",
               "types" : [ "route" ]
            },
            {
               "long_name" : "M. Alipaşa",
               "short_name" : "M. Alipaşa",
               "types" : [ "administrative_area_level_4", "political" ]
            },
            {
               "long_name" : "İzmit",
               "short_name" : "İzmit",
               "types" : [ "administrative_area_level_2", "political" ]
            },
            {
               "long_name" : "Kocaeli",
               "short_name" : "Kocaeli",
               "types" : [ "administrative_area_level_1", "political" ]
            },
            {
               "long_name" : "Turkey",
               "short_name" : "TR",
               "types" : [ "country", "political" ]
            },
            {
               "long_name" : "41050",
               "short_name" : "41050",
               "types" : [ "postal_code" ]
            }
         ],
         "formatted_address" : "M. Alipaşa, Müjde Sk. No:39, 41050 İzmit/Kocaeli, Turkey",
         "geometry" : {
            "location" : {
               "lat" : 40.7666838,
               "lng" : 29.9580242
            },
            "location_type" : "ROOFTOP",
            "viewport" : {
               "northeast" : {
                  "lat" : 40.7680327802915,
                  "lng" : 29.9593731802915
               },
               "southwest" : {
                  "lat" : 40.7653348197085,
                  "lng" : 29.9566752197085
               }
            }
         },
         "place_id" : "ChIJ5Xg-4PFPyxQRHJ5-QJVDpDE",
         "plus_code" : {
            "compound_code" : "QX85+M6 İzmit/Kocaeli, Turkey",
            "global_code" : "8GGFQX85+M6"
         },
         "types" : [ "street_address" ]
      },
      {
         "address_components" : [
            {
               "long_name" : "No:39",
               "short_name" : "No:39",
               "types" : [ "street_number" ]
            },
            {
               "long_name" : "Adnan Menderes Bulvarı",
               "short_name" : "Adnan Menderes Blv.",
               "types" : [ "route" ]
            },
            {
               "long_name" : "M. Alipaşa",
               "short_name" : "M. Alipaşa",
               "types" : [ "administrative_area_level_4", "political" ]
            },
            {
               "long_name" : "İzmit",
               "short_name" : "İzmit",
               "types" : [ "administrative_area_level_2", "political" ]
            },
            {
               "long_name" : "Kocaeli",
               "short_name" : "Kocaeli",
               "types" : [ "administrative_area_level_1", "political" ]
            },
            {
               "long_name" : "Turkey",
               "short_name" : "TR",
               "types" : [ "country", "political" ]
            },
            {
               "long_name" : "41050",
               "short_name" : "41050",
               "types" : [ "postal_code" ]
            }
         ],
         "formatted_address" : "M. Alipaşa, Adnan Menderes Blv. No:39, 41050 İzmit/Kocaeli, Turkey",
         "geometry" : {
            "location" : {
               "lat" : 40.7666905,
               "lng" : 29.9580521
            },
            "location_type" : "ROOFTOP",
            "viewport" : {
               "northeast" : {
                  "lat" : 40.76803948029149,
                  "lng" : 29.9594010802915
               },
               "southwest" : {
                  "lat" : 40.76534151970849,
                  "lng" : 29.9567031197085
               }
            }
         },
         "place_id" : "ChIJa8mg6uZPyxQR2DhSyYX5Xm8",
         "plus_code" : {
            "compound_code" : "QX85+M6 İzmit/Kocaeli, Turkey",
            "global_code" : "8GGFQX85+M6"
         },
         "types" : [ "establishment", "point_of_interest" ]
      },
      {
         "address_components" : [
            {
               "long_name" : "36",
               "short_name" : "36",
               "types" : [ "street_number" ]
            },
            {
               "long_name" : "Müjde Sokak",
               "short_name" : "Müjde Sk.",
               "types" : [ "route" ]
            },
            {
               "long_name" : "M. Alipaşa",
               "short_name" : "M. Alipaşa",
               "types" : [ "administrative_area_level_4", "political" ]
            },
            {
               "long_name" : "İzmit",
               "short_name" : "İzmit",
               "types" : [ "administrative_area_level_2", "political" ]
            },
            {
               "long_name" : "Kocaeli",
               "short_name" : "Kocaeli",
               "types" : [ "administrative_area_level_1", "political" ]
            },
            {
               "long_name" : "Turkey",
               "short_name" : "TR",
               "types" : [ "country", "political" ]
            },
            {
               "long_name" : "41050",
               "short_name" : "41050",
               "types" : [ "postal_code" ]
            }
         ],
         "formatted_address" : "M. Alipaşa, Müjde Sk. No:36, 41050 İzmit/Kocaeli, Turkey",
         "geometry" : {
            "location" : {
               "lat" : 40.7666294,
               "lng" : 29.9578917
            },
            "location_type" : "RANGE_INTERPOLATED",
            "viewport" : {
               "northeast" : {
                  "lat" : 40.7679783802915,
                  "lng" : 29.9592406802915
               },
               "southwest" : {
                  "lat" : 40.7652804197085,
                  "lng" : 29.9565427197085
               }
            }
         },
         "place_id" : "EjtNLiBBbGlwYcWfYSwgTcO8amRlIFNrLiBObzozNiwgNDEwNTAgxLB6bWl0L0tvY2FlbGksIFR1cmtleSIaEhgKFAoSCXVpcuHxT8sUEcnaQZXMbVYpECQ",
         "types" : [ "street_address" ]
      },
      {
         "address_components" : [
            {
               "long_name" : "QX85+J5",
               "short_name" : "QX85+J5",
               "types" : [ "plus_code" ]
            },
            {
               "long_name" : "İzmit",
               "short_name" : "İzmit",
               "types" : [ "administrative_area_level_2", "political" ]
            },
            {
               "long_name" : "Kocaeli",
               "short_name" : "Kocaeli",
               "types" : [ "administrative_area_level_1", "political" ]
            },
            {
               "long_name" : "Turkey",
               "short_name" : "TR",
               "types" : [ "country", "political" ]
            }
         ],
         "formatted_address" : "QX85+J5 İzmit/Kocaeli, Turkey",
         "geometry" : {
            "bounds" : {
               "northeast" : {
                  "lat" : 40.766625,
                  "lng" : 29.958
               },
               "southwest" : {
                  "lat" : 40.7665,
                  "lng" : 29.957875
               }
            },
            "location" : {
               "lat" : 40.7665666,
               "lng" : 29.9579144
            },
            "location_type" : "GEOMETRIC_CENTER",
            "viewport" : {
               "northeast" : {
                  "lat" : 40.7679114802915,
                  "lng" : 29.9592864802915
               },
               "southwest" : {
                  "lat" : 40.7652135197085,
                  "lng" : 29.9565885197085
               }
            }
         },
         "place_id" : "GhIJW5q22h5iREAREl7M4Dn1PUA",
         "plus_code" : {
            "compound_code" : "QX85+J5 İzmit/Kocaeli, Turkey",
            "global_code" : "8GGFQX85+J5"
         },
         "types" : [ "plus_code" ]
      },
      {
         "address_components" : [
            {
               "long_name" : "Müjde Sokak",
               "short_name" : "Müjde Sk.",
               "types" : [ "route" ]
            },
            {
               "long_name" : "M. Alipaşa",
               "short_name" : "M. Alipaşa",
               "types" : [ "administrative_area_level_4", "political" ]
            },
            {
               "long_name" : "İzmit",
               "short_name" : "İzmit",
               "types" : [ "administrative_area_level_2", "political" ]
            },
            {
               "long_name" : "Kocaeli",
               "short_name" : "Kocaeli",
               "types" : [ "administrative_area_level_1", "political" ]
            },
            {
               "long_name" : "Turkey",
               "short_name" : "TR",
               "types" : [ "country", "political" ]
            },
            {
               "long_name" : "41050",
               "short_name" : "41050",
               "types" : [ "postal_code" ]
            }
         ],
         "formatted_address" : "M. Alipaşa, Müjde Sk., 41050 İzmit/Kocaeli, Turkey",
         "geometry" : {
            "bounds" : {
               "northeast" : {
                  "lat" : 40.76664299999999,
                  "lng" : 29.9582981
               },
               "southwest" : {
                  "lat" : 40.7666168,
                  "lng" : 29.9574541
               }
            },
            "location" : {
               "lat" : 40.7666299,
               "lng" : 29.9578761
            },
            "location_type" : "GEOMETRIC_CENTER",
            "viewport" : {
               "northeast" : {
                  "lat" : 40.7679788802915,
                  "lng" : 29.9592250802915
               },
               "southwest" : {
                  "lat" : 40.7652809197085,
                  "lng" : 29.9565271197085
               }
            }
         },
         "place_id" : "ChIJdWly4fFPyxQRyNpBlcxtVik",
         "types" : [ "route" ]
      },
      {
         "address_components" : [
            {
               "long_name" : "41050",
               "short_name" : "41050",
               "types" : [ "postal_code" ]
            },
            {
               "long_name" : "M. Alipaşa",
               "short_name" : "M. Alipaşa",
               "types" : [ "administrative_area_level_4", "political" ]
            },
            {
               "long_name" : "İzmit",
               "short_name" : "İzmit",
               "types" : [ "administrative_area_level_2", "political" ]
            },
            {
               "long_name" : "Kocaeli",
               "short_name" : "Kocaeli",
               "types" : [ "administrative_area_level_1", "political" ]
            },
            {
               "long_name" : "Turkey",
               "short_name" : "TR",
               "types" : [ "country", "political" ]
            }
         ],
         "formatted_address" : "M. Alipaşa, 41050 İzmit/Kocaeli, Turkey",
         "geometry" : {
            "bounds" : {
               "northeast" : {
                  "lat" : 40.77284,
                  "lng" : 29.959482
               },
               "southwest" : {
                  "lat" : 40.763034,
                  "lng" : 29.9486929
               }
            },
            "location" : {
               "lat" : 40.7672137,
               "lng" : 29.9523716
            },
            "location_type" : "APPROXIMATE",
            "viewport" : {
               "northeast" : {
                  "lat" : 40.77284,
                  "lng" : 29.959482
               },
               "southwest" : {
                  "lat" : 40.763034,
                  "lng" : 29.9486929
               }
            }
         },
         "place_id" : "ChIJ_fiVgO1PyxQRTWoD9Dt3MQU",
         "types" : [ "postal_code" ]
      },
      {
         "address_components" : [
            {
               "long_name" : "M. Alipaşa",
               "short_name" : "M. Alipaşa",
               "types" : [ "administrative_area_level_4", "political" ]
            },
            {
               "long_name" : "İzmit",
               "short_name" : "İzmit",
               "types" : [ "administrative_area_level_2", "political" ]
            },
            {
               "long_name" : "Kocaeli",
               "short_name" : "Kocaeli",
               "types" : [ "administrative_area_level_1", "political" ]
            },
            {
               "long_name" : "Turkey",
               "short_name" : "TR",
               "types" : [ "country", "political" ]
            }
         ],
         "formatted_address" : "M. Alipaşa, İzmit/Kocaeli, Turkey",
         "geometry" : {
            "bounds" : {
               "northeast" : {
                  "lat" : 40.77284,
                  "lng" : 29.959482
               },
               "southwest" : {
                  "lat" : 40.763034,
                  "lng" : 29.9485909
               }
            },
            "location" : {
               "lat" : 40.7672137,
               "lng" : 29.9523716
            },
            "location_type" : "APPROXIMATE",
            "viewport" : {
               "northeast" : {
                  "lat" : 40.77284,
                  "lng" : 29.959482
               },
               "southwest" : {
                  "lat" : 40.763034,
                  "lng" : 29.9485909
               }
            }
         },
         "place_id" : "ChIJk2b1wPJPyxQRJLticksnTmc",
         "types" : [ "administrative_area_level_4", "political" ]
      },
      {
         "address_components" : [
            {
               "long_name" : "İzmit",
               "short_name" : "İzmit",
               "types" : [ "locality", "political" ]
            },
            {
               "long_name" : "İzmit",
               "short_name" : "İzmit",
               "types" : [ "administrative_area_level_2", "political" ]
            },
            {
               "long_name" : "Kocaeli",
               "short_name" : "Kocaeli",
               "types" : [ "administrative_area_level_1", "political" ]
            },
            {
               "long_name" : "Turkey",
               "short_name" : "TR",
               "types" : [ "country", "political" ]
            }
         ],
         "formatted_address" : "İzmit, Kocaeli, Turkey",
         "geometry" : {
            "bounds" : {
               "northeast" : {
                  "lat" : 40.805401,
                  "lng" : 30.014834
               },
               "southwest" : {
                  "lat" : 40.736827,
                  "lng" : 29.8541681
               }
            },
            "location" : {
               "lat" : 40.7654408,
               "lng" : 29.9408089
            },
            "location_type" : "APPROXIMATE",
            "viewport" : {
               "northeast" : {
                  "lat" : 40.805401,
                  "lng" : 30.014834
               },
               "southwest" : {
                  "lat" : 40.736827,
                  "lng" : 29.8541681
               }
            }
         },
         "place_id" : "ChIJnftLZGZPyxQRuX5rWOcOaYI",
         "types" : [ "locality", "political" ]
      },
      {
         "address_components" : [
            {
               "long_name" : "İzmit",
               "short_name" : "İzmit",
               "types" : [ "administrative_area_level_2", "political" ]
            },
            {
               "long_name" : "Kocaeli",
               "short_name" : "Kocaeli",
               "types" : [ "administrative_area_level_1", "political" ]
            },
            {
               "long_name" : "Turkey",
               "short_name" : "TR",
               "types" : [ "country", "political" ]
            }
         ],
         "formatted_address" : "İzmit/Kocaeli, Turkey",
         "geometry" : {
            "bounds" : {
               "northeast" : {
                  "lat" : 40.971557,
                  "lng" : 30.2639339
               },
               "southwest" : {
                  "lat" : 40.720553,
                  "lng" : 29.8541681
               }
            },
            "location" : {
               "lat" : 40.8506635,
               "lng" : 30.0202964
            },
            "location_type" : "APPROXIMATE",
            "viewport" : {
               "northeast" : {
                  "lat" : 40.971557,
                  "lng" : 30.2639339
               },
               "southwest" : {
                  "lat" : 40.720553,
                  "lng" : 29.8541681
               }
            }
         },
         "place_id" : "ChIJL2DfPLZQyxQRitx6sY9PIGU",
         "types" : [ "administrative_area_level_2", "political" ]
      },
      {
         "address_components" : [
            {
               "long_name" : "Kocaeli",
               "short_name" : "Kocaeli",
               "types" : [ "administrative_area_level_1", "political" ]
            },
            {
               "long_name" : "Turkey",
               "short_name" : "TR",
               "types" : [ "country", "political" ]
            }
         ],
         "formatted_address" : "Kocaeli, Turkey",
         "geometry" : {
            "bounds" : {
               "northeast" : {
                  "lat" : 41.20976,
                  "lng" : 30.367743
               },
               "southwest" : {
                  "lat" : 40.524151,
                  "lng" : 29.3331261
               }
            },
            "location" : {
               "lat" : 40.8532704,
               "lng" : 29.8815203
            },
            "location_type" : "APPROXIMATE",
            "viewport" : {
               "northeast" : {
                  "lat" : 41.20976,
                  "lng" : 30.367743
               },
               "southwest" : {
                  "lat" : 40.524151,
                  "lng" : 29.3331261
               }
            }
         },
         "place_id" : "ChIJQ8zKb5QgyxQRWdhW642zLKg",
         "types" : [ "administrative_area_level_1", "political" ]
      },
      {
         "address_components" : [
            {
               "long_name" : "Turkey",
               "short_name" : "TR",
               "types" : [ "country", "political" ]
            }
         ],
         "formatted_address" : "Turkey",
         "geometry" : {
            "bounds" : {
               "northeast" : {
                  "lat" : 42.3666999,
                  "lng" : 44.8178449
               },
               "southwest" : {
                  "lat" : 35.808592,
                  "lng" : 25.5377
               }
            },
            "location" : {
               "lat" : 38.963745,
               "lng" : 35.243322
            },
            "location_type" : "APPROXIMATE",
            "viewport" : {
               "northeast" : {
                  "lat" : 42.3666999,
                  "lng" : 44.8178449
               },
               "southwest" : {
                  "lat" : 35.808592,
                  "lng" : 25.5377
               }
            }
         },
         "place_id" : "ChIJcSZPllwVsBQRKl9iKtTb2UA",
         "types" : [ "country", "political" ]
      }
   ],
   "status" : "OK"
}
